[
    {
        "topic": "Illegal Services",
        "brief": "Questioning the behavior of people offering illegal services to strangers at railway stations.",
        "locations": [
            "Delhi"
        ],
        "sentiment_score": -0.6,
        "Votes": 1,
        "coords": [
            {
                "name": "Delhi",
                "lat": 28.6138954,
                "lon": 77.2090057
            }
        ]
    },
    {
        "topic": "Digicam Repair",
        "brief": "Seeking assistance with repairing a digicam.",
        "locations": [
            "mumbai"
        ],
        "sentiment_score": 0.0,
        "Votes": 2,
        "coords": [
            {
                "name": "mumbai",
                "lat": 19.054999,
                "lon": 72.8692035
            }
        ]
    },
    {
        "topic": "Real Estate",
        "brief": "A flat is being offered for sale.",
        "locations": [
            "Hyderabad"
        ],
        "sentiment_score": 0.5,
        "Votes": 1,
        "coords": [
            {
                "name": "Hyderabad",
                "lat": 17.360589,
                "lon": 78.4740613
            }
        ]
    },
    {
        "topic": "Civic Issues",
        "brief": "Complaint about severe air pollution, comparing the situation to living in a gas chamber due to a lack of civic sense.",
        "locations": [
            "Pune"
        ],
        "sentiment_score": -0.9,
        "Votes": 2,
        "coords": [
            {
                "name": "Pune",
                "lat": 18.5213738,
                "lon": 73.8545071
            }
        ]
    },
    {
        "topic": "Relocation",
        "brief": "User relocated to Vandalur.",
        "locations": [
            "Vandalur",
            "Chennai"
        ],
        "sentiment_score": 0.0,
        "Votes": 6,
        "coords": [
            {
                "name": "Vandalur",
                "lat": 12.8921486,
                "lon": 80.0829603
            },
            {
                "name": "Chennai",
                "lat": 13.0836939,
                "lon": 80.270186
            }
        ]
    }
]